City,Latitude,Longitude,Max Temp,Humidity,Cloudiness,Wind Speed,Country,Date
Cape Town,-33.9258,18.4232,61.11,79,75,3.0,ZA,1624452009
Kirakira,-10.4544,161.9205,78.57,85,100,10.36,SB,1624452095
Yellowknife,62.456,-114.3525,45.12,65,75,16.11,CA,1624452095
Baishishan,43.5833,127.5667,61.63,77,33,1.68,CN,1624452097
Tiksi,71.6872,128.8694,38.37,81,81,17.45,RU,1624452097
Hong Kong,22.2855,114.1577,80.01,84,100,5.35,HK,1624451897
Ancud,-41.8697,-73.8203,39.42,91,13,5.21,CL,1624452098
Kawalu,-7.3817,108.2082,72.21,99,100,0.89,ID,1624452098
Vestmanna,62.1564,-7.1664,49.12,81,90,10.36,FO,1624452100
Rikitea,-23.1203,-134.9692,75.63,72,6,11.07,PF,1624452100
Aswān,24.0934,32.907,108.36,9,1,12.59,EG,1624452100
Koson,39.0375,65.585,97.12,10,0,13.58,UZ,1624452102
Ushuaia,-54.8,-68.3,38.86,70,75,2.3,AR,1624452102
Hofn,64.2539,-15.2082,50.4,65,28,2.04,IS,1624452103
Qaqortoq,60.7167,-46.0333,42.84,94,100,3.98,GL,1624452104
Tuatapere,-46.1333,167.6833,44.82,89,100,5.57,NZ,1624452105
Arman',59.7,150.1667,46.45,97,100,0.38,RU,1624452106
Hithadhoo,-0.6,73.0833,81.63,76,73,17.47,MV,1624452106
Road Town,18.4167,-64.6167,82.49,78,40,13.8,VG,1624452107
Nizwá,22.9333,57.5333,104.94,10,98,7.92,OM,1624452108
Peniche,39.3558,-9.3811,76.95,67,5,18.86,PT,1624452108
Hobart,-42.8794,147.3294,53.46,87,75,10.36,AU,1624452045
Kamenskiy,50.8855,45.488,89.37,35,6,9.08,RU,1624452109
Dhārchula,29.85,80.5333,77.72,80,12,2.62,IN,1624452109
Kul'dur,49.2167,131.6333,59.97,94,98,1.48,RU,1624452111
Hermanus,-34.4187,19.2345,56.89,70,89,12.73,ZA,1624452111
Pundaguitan,6.3711,126.1689,83.82,72,89,6.62,PH,1624452111
Alofi,-19.0595,-169.9187,66.09,100,100,1.14,NU,1624452112
Atuona,-9.8,-139.0333,77.85,79,22,9.04,PF,1624452112
Fortuna,40.5982,-124.1573,55.47,74,90,0.0,US,1624452113
Punta Arenas,-53.15,-70.9167,32.11,93,75,5.75,CL,1624452113
Castro,-24.7911,-50.0119,54.59,85,97,11.72,BR,1624452113
Vallenar,-28.5708,-70.7581,49.21,76,100,3.91,CL,1624452114
Hilo,19.7297,-155.09,71.33,87,90,5.75,US,1624452027
New Norfolk,-42.7826,147.0587,53.1,81,96,3.0,AU,1624452116
Nome,64.5011,-165.4064,55.47,88,90,1.52,US,1624452116
Valparaíso,-33.0393,-71.6273,55.47,85,90,12.66,CL,1624452117
La Palma,33.8464,-118.0467,70.36,84,75,1.01,US,1624452117
Geraldton,-28.7667,114.6,48.61,87,10,6.91,AU,1624452118
Port Alfred,-33.5906,26.891,66.43,66,11,16.31,ZA,1624452118
Cherskiy,68.75,161.3,51.91,49,100,8.32,RU,1624452118
Salalah,17.0151,54.0924,82.49,83,90,9.22,OM,1624452119
East London,-33.0153,27.9116,67.14,59,0,9.22,ZA,1624452119
Nyurba,63.2842,118.3319,65.14,87,66,4.83,RU,1624452120
Lhokseumawe,5.1801,97.1507,80.13,73,99,1.79,ID,1624452120
Grand Gaube,-20.0064,57.6608,74.37,58,3,7.0,MU,1624452121
Carnarvon,-24.8667,113.6333,53.67,52,0,8.05,AU,1624451999
San Antonio,29.4241,-98.4936,80.47,91,90,8.05,US,1624451981
Thunder Bay,48.4001,-89.3168,61.99,93,75,2.3,CA,1624452123
Chimbote,-9.0853,-78.5783,65.01,84,48,8.1,PE,1624452123
Deputatsky,69.3,139.9,59.16,46,0,5.3,RU,1624452124
Ribeira Grande,38.5167,-28.7,68.4,73,75,3.44,PT,1624452124
Vaini,-21.2,-175.2,68.16,94,90,10.36,TO,1624452125
Yar-Sale,66.8333,70.8333,46.63,63,52,8.52,RU,1624452125
Sept-Îles,50.2001,-66.3821,59.52,69,75,3.0,CA,1624452126
Jamestown,42.097,-79.2353,60.3,70,12,1.01,US,1624452127
Mataura,-46.1927,168.8643,44.47,92,100,3.11,NZ,1624452127
Bluff,-46.6,168.3333,44.8,79,100,15.55,NZ,1624452127
Busselton,-33.65,115.3333,50.04,86,13,8.19,AU,1624452129
Catuday,16.2923,119.8062,81.64,78,100,14.43,PH,1624452129
San Ramon,37.7799,-121.978,61.39,83,90,1.01,US,1624452129
Saskylakh,71.9167,114.0833,51.55,37,49,16.08,RU,1624452129
Chui,-33.6971,-53.4616,59.31,80,22,15.3,UY,1624452130
Yumen,40.2833,97.2,75.06,32,100,2.24,CN,1624452130
Bambous Virieux,-20.3428,57.7575,74.21,60,75,12.66,MU,1624452131
Elizabeth City,36.2946,-76.2511,71.02,84,1,9.22,US,1624452132
Battle Creek,42.3212,-85.1797,59.38,79,20,1.01,US,1624452132
Carutapera,-1.195,-46.02,84.13,66,38,7.23,BR,1624452133
Aljezur,37.3191,-8.8033,72.91,56,2,15.01,PT,1624452134
Estelle,29.8458,-90.1067,82.99,84,40,0.0,US,1624452135
Albany,42.6001,-73.9662,60.64,72,0,7.81,US,1624452135
Vokhtoga,58.8147,41.0461,91.74,34,29,4.63,RU,1624452135
Saldanha,-33.0117,17.9442,59.05,73,100,10.78,ZA,1624452135
Mana,5.6592,-53.7767,81.61,67,26,5.44,GF,1624452136
Sambava,-14.2667,50.1667,75.92,61,0,15.37,MG,1624452136
Bengkulu,-3.8004,102.2655,77.0,86,100,3.4,ID,1624452137
Adrar,20.5022,-10.0711,100.96,11,44,18.16,MR,1624452137
Rudnichnyy,59.617,52.4703,82.13,45,29,5.66,RU,1624452138
Iralaya,15.0,-83.2333,80.69,73,15,10.0,HN,1624452138
Tuktoyaktuk,69.4541,-133.0374,36.34,90,93,3.0,CA,1624452138
Magadan,59.5667,150.8,47.62,93,100,5.99,RU,1624452139
Xai-Xai,-25.0519,33.6442,79.36,39,3,4.52,MZ,1624452139
Katsuura,35.1333,140.3,73.11,86,80,10.13,JP,1624452140
Caucayá,-0.1934,-74.7819,73.56,92,99,2.35,CO,1624452140
Rio Grande,-32.035,-52.0986,60.91,79,100,19.93,BR,1624452141
Lebu,-37.6167,-73.65,51.35,82,100,8.59,CL,1624452142
Santa Isabel Rio Negro,-0.4139,-65.0192,77.07,88,60,1.74,BR,1624452142
Kapaa,22.0752,-159.319,71.58,59,91,7.09,US,1624451991
Thompson,55.7435,-97.8558,55.56,94,90,8.05,CA,1624452143
Bereda,43.2686,-7.5406,61.88,49,23,7.9,ES,1624452143
Ihosy,-22.4,46.1167,68.18,48,0,4.38,MG,1624452144
Prudy,57.5738,46.2718,89.4,36,40,7.02,RU,1624452144
Coolum Beach,-26.5333,153.1,61.11,95,100,3.87,AU,1624452145
Cidreira,-30.1811,-50.2056,62.01,85,98,14.52,BR,1624452145
San Andrés,12.5847,-81.7006,82.42,78,75,12.66,CO,1624452146
Port Moresby,-9.4431,147.1797,78.22,83,40,11.5,PG,1624452146
Sitka,57.0531,-135.33,51.69,87,90,3.44,US,1624452147
Te Anau,-45.4167,167.7167,44.78,91,100,4.36,NZ,1624452147
Thai Binh,20.45,106.3333,86.0,71,100,4.94,VN,1624451850
Batemans Bay,-35.7167,150.1833,60.91,77,100,7.78,AU,1624452148
Mokhsogollokh,61.4681,128.9203,72.82,59,95,3.47,RU,1624452149
Karratha,-20.7377,116.8463,63.32,32,90,11.23,AU,1624452149
Maragogi,-9.0122,-35.2225,80.94,69,28,9.35,BR,1624452151
Pires do Rio,-17.2997,-48.2794,78.57,39,5,9.66,BR,1624452151
Tasiilaq,65.6145,-37.6368,48.36,74,77,0.89,GL,1624452151
Umm Hājar,13.2954,19.6966,96.31,30,40,14.25,TD,1624452152
Makhachkala,42.9764,47.5024,80.58,56,0,15.3,RU,1624452152
Mayumba,-3.432,10.6554,75.92,79,91,9.15,GA,1624452153
San Quintín,30.4833,-115.95,64.96,91,51,3.13,MX,1624452154
Barrow,71.2906,-156.7887,37.42,81,1,8.05,US,1624452155
Fes,34.0372,-4.9998,82.65,26,0,6.91,MA,1624452155
Zelenoborskiy,66.845,32.3622,55.89,68,100,7.81,RU,1624452156
Muzhi,65.3667,64.6667,66.92,34,43,6.2,RU,1624452156
Barra Patuca,15.8,-84.2833,81.16,80,100,8.03,HN,1624452157
Vytegra,61.0064,36.4481,88.65,39,80,3.96,RU,1624452158
Vitim,59.4511,112.5578,73.02,57,70,3.87,RU,1624452158
San Patricio,28.017,-97.5169,80.69,83,0,6.89,US,1624452159
Tymovskoye,50.8456,142.655,56.57,96,100,2.66,RU,1624452159
Torbay,47.6666,-52.7314,61.29,98,90,11.5,CA,1624452160
Capão da Canoa,-29.7456,-50.0097,61.52,82,100,11.92,BR,1624452160
Talnakh,69.4865,88.3972,55.29,53,27,2.39,RU,1624452162
Nabire,-3.3667,135.4833,75.79,91,44,3.42,ID,1624452163
George Town,5.4112,100.3354,85.95,72,20,6.91,MY,1624452163
Bonthe,7.5264,-12.505,84.0,71,100,7.78,SL,1624452164
Kondinskoye,59.6481,67.41,57.54,47,95,10.89,RU,1624452164
Avera,33.194,-82.5271,72.39,76,0,4.14,US,1624452164
Severnyy,50.677,36.5532,89.64,37,0,8.95,RU,1624452165
Aklavik,68.2191,-135.0107,45.43,61,24,3.13,CA,1624452165
Mahébourg,-20.4081,57.7,74.25,60,75,12.66,MU,1624452165
Arraial do Cabo,-22.9661,-42.0278,73.36,68,20,5.75,BR,1624452166
Olafsvik,64.8945,-23.7142,46.74,68,10,6.08,IS,1624452166
Tambacounda,13.7539,-13.7586,93.25,38,0,11.5,SN,1624452166
Nizhniy Chir,48.3597,43.0865,101.97,26,34,15.17,RU,1624452167
Faya,18.3851,42.4509,89.71,13,87,13.51,SA,1624452167
Kudahuvadhoo,2.6708,72.8944,83.03,73,69,13.53,MV,1624452167
Dembī Dolo,8.5333,34.8,66.47,78,59,4.97,ET,1624452168
Jumla,29.2747,82.1838,66.65,83,15,2.86,NP,1624452168
Caravelas,-17.7125,-39.2481,73.9,84,42,11.48,BR,1624452169
Kavieng,-2.5744,150.7967,82.65,75,81,7.99,PG,1624452169
Karpogory,64.0019,44.4451,92.97,25,6,6.2,RU,1624452169
San Alberto,7.7611,-73.3922,76.98,83,64,3.09,CO,1624452170
Acapulco de Juárez,16.8634,-99.8901,78.62,94,90,2.3,MX,1624452170
Upernavik,72.7868,-56.1549,48.24,48,0,5.48,GL,1624452171
Qaanaaq,77.484,-69.3632,45.37,46,100,9.06,GL,1624452171
Dongying,37.4564,118.4856,79.0,44,100,9.64,CN,1624452172
Mandalī,33.7499,45.5541,109.62,7,0,20.22,IQ,1624452172
Alta Floresta,-9.8756,-56.0861,80.96,40,35,2.1,BR,1624452173
Souillac,-20.5167,57.5167,74.35,60,75,12.66,MU,1624452173
Marawi,7.9986,124.2928,70.07,93,100,1.36,PH,1624452173
Rovaniemi,66.5,25.7167,60.21,67,90,9.22,FI,1624452174
Portland,45.5234,-122.6762,59.74,86,20,1.01,US,1624452174
Tayu,-6.5397,111.0518,79.52,84,91,6.22,ID,1624452072
Shache,38.4167,77.2406,83.64,17,63,9.42,CN,1624452175
Vanino,49.0869,140.2543,54.23,89,95,4.05,RU,1624452175
Saint George,37.1041,-113.5841,86.25,26,1,4.61,US,1624452137
Mayo,38.8876,-76.5119,66.94,72,1,5.01,US,1624452176
Kyra,49.5776,111.9753,61.02,85,100,1.79,RU,1624452176
Bloomfield,40.8068,-74.1854,64.89,68,1,1.99,US,1624452177
Laguna,38.421,-121.4238,63.45,83,1,1.01,US,1624452071
Guerrero Negro,27.9769,-114.0611,64.78,90,6,4.47,MX,1624452179
Puerto Ayora,-0.7393,-90.3518,70.56,93,100,1.99,EC,1624452180
Beringovskiy,63.05,179.3167,42.3,81,89,5.86,RU,1624452180
Coquimbo,-29.9533,-71.3436,51.53,87,75,5.75,CL,1624452181
Le Vauclin,14.5452,-60.8388,84.85,69,75,13.8,MQ,1624452182
Sinnamary,5.3833,-52.95,79.23,73,57,8.68,GF,1624452182
Lavrentiya,65.5833,-171.0,45.1,83,79,0.83,RU,1624452183
West Bay,19.3667,-81.4167,84.27,84,75,1.99,KY,1624452183
Meru,0.0463,37.6559,71.33,52,27,12.84,KE,1624452184
Shelburne,44.0787,-80.2041,57.06,79,3,8.77,CA,1624452184
Salinópolis,-0.6136,-47.3561,83.57,68,33,8.93,BR,1624452185
Vasterhaninge,59.1167,18.1,71.44,84,69,3.67,SE,1624452186
Los Llanos de Aridane,28.6585,-17.9182,71.35,78,20,14.97,ES,1624451951
City of San Pedro,14.35,121.0167,85.23,78,40,9.22,PH,1624452186
Yangi Marg`ilon,40.4272,71.7189,92.12,12,0,9.22,UZ,1624452187
Yigou,35.8114,114.3167,88.36,23,56,7.07,CN,1624452188
Saint-Philippe,-21.3585,55.7679,73.22,70,41,12.28,RE,1624452188
Atar,20.5169,-13.0499,95.05,15,23,9.22,MR,1624452189
Banjar,-8.19,114.9675,82.26,91,47,3.47,ID,1624452189
Stephenville,32.2207,-98.2023,73.4,94,90,5.75,US,1624451938
George Town,5.4112,100.3354,85.95,72,20,6.91,MY,1624452042
San Cristobal,7.7669,-72.225,66.38,61,18,4.23,VE,1624452194
Nikolskoye,59.7035,30.7861,94.89,28,20,10.13,RU,1624452194
Balkhash,46.844,74.9804,70.03,49,100,22.55,KZ,1624452195
Zulueta,42.7451,-1.5793,68.22,67,75,13.8,ES,1624452195
Gobabis,-22.45,18.9667,69.19,23,0,4.72,NA,1624452196
Asău,46.4333,26.4,83.32,65,38,4.09,RO,1624452196
São Filipe,14.8961,-24.4956,75.42,76,22,10.16,CV,1624452196
Mogadishu,2.0371,45.3438,84.07,61,75,17.27,SO,1624452197
Kurdzhinovo,43.9884,40.9552,70.72,91,100,2.66,RU,1624452198
Welwyn Garden City,51.8017,-0.2069,70.32,56,40,1.01,GB,1624452198
Ubari,26.5921,12.7805,103.33,11,0,12.57,LY,1624452199
Nouadhibou,20.931,-17.0347,69.21,75,98,19.51,MR,1624452200
Freeport,40.6576,-73.5832,65.1,65,1,4.0,US,1624452200
Shenzhen,22.5455,114.0683,80.55,91,100,7.36,CN,1624452082
Butaritari,3.0707,172.7902,83.68,68,100,11.18,KI,1624452201
Avarua,-21.2078,-159.775,66.25,94,20,3.44,CK,1624452201
Xapuri,-10.6517,-68.5044,68.65,67,28,1.77,BR,1624452202
Pevek,69.7008,170.3133,36.97,76,16,4.07,RU,1624452203
Zambezi,-13.5432,23.1047,84.22,19,10,0.65,ZM,1624452203
Chimbarongo,-34.7,-71.05,52.72,77,100,3.31,CL,1624452204
Grindavik,63.8424,-22.4338,51.91,71,20,19.57,IS,1624452204
Oranjemund,-28.55,16.4333,62.76,64,0,11.61,NA,1624452204
Patiya,22.2931,91.9762,85.95,84,75,13.8,BD,1624452205
Viedma,-40.8135,-62.9967,49.59,84,100,15.08,AR,1624452205
Dingle,10.9995,122.6711,78.3,86,100,2.26,PH,1624452206
Kahului,20.8947,-156.47,76.84,80,75,0.0,US,1624451988
Sal Rei,16.1833,-22.9167,79.0,69,40,20.71,CV,1624452206
Port Lincoln,-34.7333,135.8667,55.42,81,100,31.14,AU,1624452207
Borogontsy,62.6683,131.1683,67.46,66,100,2.19,RU,1624452207
Tazovsky,67.4667,78.7,41.54,85,100,9.62,RU,1624452208
Constitución,-35.3333,-72.4167,52.59,90,100,2.44,CL,1624452208
Kortkeros,61.8106,51.5806,78.8,40,94,4.92,RU,1624452209
Sobolevo,54.4299,31.8996,87.26,54,73,6.91,RU,1624452209
Mossamedes,-15.1961,12.1522,75.83,73,40,4.61,AO,1624452210
Turan,16.0678,108.2208,89.58,62,20,4.61,VN,1624452127
Roald,62.5833,6.1333,63.1,72,75,14.97,NO,1624452211
Bandarbeyla,9.4942,50.8122,83.41,62,19,31.79,SO,1624452212
Vostok,46.4856,135.8833,54.7,76,46,4.88,RU,1624452213
Kichera,55.9375,110.0997,69.53,61,60,3.13,RU,1624452214
Mar del Plata,-38.0023,-57.5575,55.13,60,90,11.99,AR,1624452215
Boysun,38.2061,67.1986,85.3,14,1,6.42,UZ,1624452217
Bethel,41.3712,-73.414,62.76,73,1,1.99,US,1624452217
Chokurdakh,70.6333,147.9167,68.95,38,3,8.81,RU,1624452217
Kokuy,52.2037,117.5529,63.68,87,100,4.12,RU,1624452218
Meadow Lake,34.8014,-106.5436,74.57,27,100,0.92,US,1624452219
Bredasdorp,-34.5322,20.0403,58.32,72,85,4.61,ZA,1624452219
Namatanai,-3.6667,152.4333,79.48,85,75,5.53,PG,1624452219
Xining,36.6167,101.7667,68.23,49,94,12.48,CN,1624452220
Cayenne,4.9333,-52.3333,77.04,90,75,5.99,GF,1624452145
Rockhampton,-23.3833,150.5,60.69,82,40,5.75,AU,1624452221
Ocampo,21.65,-101.5,59.16,77,97,3.78,MX,1624452221
Prieska,-29.6641,22.7474,71.13,26,0,19.1,ZA,1624452221
Macclesfield,53.2602,-2.1256,70.3,62,75,9.22,GB,1624452222
Quelimane,-17.8786,36.8883,78.75,73,40,8.05,MZ,1624452223
Zhanakorgan,43.9098,67.2495,89.02,16,0,12.66,KZ,1624452224
Clyde River,70.4692,-68.5914,34.03,100,90,4.61,CA,1624452224
Groton,41.3501,-72.0784,63.84,68,1,3.0,US,1624452225
Norman Wells,65.282,-126.8329,53.64,82,75,3.44,CA,1624452225
Mount Isa,-20.7333,139.5,71.37,53,100,5.75,AU,1624452226
Kaitangata,-46.2817,169.8464,46.92,79,100,7.02,NZ,1624452226
Sovetskiy,61.3614,63.5842,66.25,26,0,9.17,RU,1624452226
Lompoc,34.6391,-120.4579,61.11,82,90,0.0,US,1624451977
Nishihara,26.1842,127.7558,76.28,83,75,4.61,JP,1624452227
São João da Barra,-21.6403,-41.0511,71.69,71,11,15.95,BR,1624452228
Morwell,-38.2333,146.4,55.4,91,100,2.3,AU,1624452229
Waingapu,-9.6567,120.2641,78.26,81,8,5.61,ID,1624452229
Port Hardy,50.6996,-127.4199,53.78,87,90,2.3,CA,1624452230
Aksu,41.1231,80.2644,85.5,20,65,6.31,CN,1624452230
Batagay-Alyta,67.8006,130.4114,62.67,79,22,1.59,RU,1624452231
Anadyr,64.75,177.4833,46.9,87,75,4.0,RU,1624452232
Liverpool,53.4106,-2.9779,65.79,83,75,4.0,GB,1624452232
Pisco,-13.7,-76.2167,64.45,82,90,4.61,PE,1624452232
Midland,31.9974,-102.0779,74.75,82,1,10.36,US,1624452233
Lagoa,39.05,-27.9833,66.18,74,100,6.2,PT,1624452233
Poya,-21.35,165.15,66.56,69,36,4.74,NC,1624452234
Havelock,34.8791,-76.9013,73.06,77,90,10.0,US,1624452234
Soyo,-6.1349,12.3689,75.25,71,100,11.16,AO,1624452234
Tommot,58.9564,126.2925,69.67,82,40,2.42,RU,1624452235
Moroto,2.5345,34.6666,82.0,31,14,13.78,UG,1624452235
Strunino,56.3833,38.5667,91.44,36,9,3.0,RU,1624452236
Srednekolymsk,67.45,153.6833,60.06,67,98,10.13,RU,1624452236
Saint Paul Harbor,57.79,-152.4072,47.71,93,90,20.71,US,1624452237
Vila do Maio,15.1333,-23.2167,81.39,84,36,13.18,CV,1624452239
Cairns,-16.9167,145.7667,71.55,85,90,8.05,AU,1624452013
Vila Franca do Campo,37.7167,-25.4333,68.41,60,55,2.48,PT,1624452240
Adeje,28.1227,-16.726,74.5,56,40,5.01,ES,1624452240
Bonavista,48.6499,-53.1147,62.6,98,100,16.71,CA,1624452241
Ürümqi,43.801,87.6005,70.75,33,0,8.95,CN,1624452046
Yarqā,31.9785,35.6947,87.31,30,0,5.75,JO,1624452242
Dikson,73.5069,80.5464,35.13,86,53,1.54,RU,1624452243
Jackson,42.4165,-122.8345,61.75,76,1,0.0,US,1624452185
Panjāb,34.388,67.0233,69.76,9,1,15.35,AF,1624452244
Innisfail,-17.5333,146.0333,71.04,77,100,5.53,AU,1624452244
Nantucket,41.2835,-70.0995,62.96,75,1,13.8,US,1624452245
Richards Bay,-28.783,32.0377,75.56,36,1,4.38,ZA,1624452245
General Roca,-39.0333,-67.5833,45.0,90,100,9.06,AR,1624452246
Ust-Kuyga,70.0167,135.6,70.27,45,0,6.02,RU,1624452246
Jinzhou,41.1078,121.1417,72.27,50,85,5.55,CN,1624452247
Meulaboh,4.1363,96.1285,80.01,72,100,5.23,ID,1624452247
Natal,-5.795,-35.2094,81.25,74,40,11.5,BR,1624452248
Hambantota,6.1241,81.1185,86.34,79,40,12.66,LK,1624452248
Christchurch,-43.5333,172.6333,47.91,96,90,4.0,NZ,1624452044
Ponta do Sol,32.6667,-17.1,75.13,44,7,4.18,PT,1624452249
Oparino,59.8518,48.2783,86.4,38,100,3.8,RU,1624452250
Naze,28.3667,129.4833,74.03,77,2,8.43,JP,1624452007
Evensk,61.95,159.2333,47.75,78,100,2.75,RU,1624452251
Machinga,-15.1685,35.3,73.44,37,73,2.93,MW,1624452251
Vardø,70.3705,31.1107,50.2,71,0,6.91,NO,1624452252
Conceição do Castelo,-20.3683,-41.2439,61.11,74,54,5.28,BR,1624452252
Severo-Kuril'sk,50.6789,156.125,43.81,91,18,5.7,RU,1624452252
Voi,-3.3945,38.563,83.03,36,99,16.02,KE,1624452253
Kailua,21.4022,-157.7394,75.18,76,20,3.44,US,1624452254
Ocean City,39.2776,-74.5746,66.29,68,0,7.0,US,1624452254
Baykit,61.67,96.37,70.25,42,14,7.67,RU,1624452254
Huambo,-12.7761,15.7392,73.2,33,0,0.0,AO,1624452254
Port Elizabeth,-33.918,25.5701,66.49,68,40,11.5,ZA,1624452255
Oniceni,46.8167,27.15,85.03,56,5,9.17,RO,1624452255
Iqaluit,63.7506,-68.5145,33.53,100,90,3.44,CA,1624452006
Inhambane,-23.865,35.3833,78.78,61,40,6.91,MZ,1624452256
Paamiut,61.994,-49.6678,47.5,84,100,33.76,GL,1624452256
Strezhevoy,60.7333,77.5889,57.18,46,65,5.39,RU,1624452257
Aktas,49.7789,72.9608,56.95,84,100,15.64,KZ,1624452258
Vernon,50.2581,-119.2691,66.29,52,55,1.14,CA,1624452258
Belmonte,-15.8631,-38.8828,77.5,75,63,10.76,BR,1624452259
Kibre Mengist,5.8833,38.9833,65.59,75,95,1.36,ET,1624452259
Labuhan,-6.8844,112.2051,79.74,83,64,5.93,ID,1624452260
Umba,66.6871,34.3429,60.84,67,100,10.38,RU,1624452260
Klaksvík,62.2266,-6.589,50.92,84,10,14.36,FO,1624452260
Ilulissat,69.2167,-51.1,55.42,26,40,25.32,GL,1624452261
Acarí,-15.4311,-74.6158,65.53,64,82,4.05,PE,1624452261
Yekaterinoslavka,50.3734,129.1139,60.3,94,15,6.15,RU,1624452262
Clarence Town,-32.5833,151.7833,58.86,81,100,3.44,AU,1624452262
Hobyo,5.3505,48.5268,80.64,70,97,27.13,SO,1624452262
Kruisfontein,-34.0033,24.7314,62.89,66,44,13.44,ZA,1624452263
Sorong,-0.8833,131.25,79.56,84,100,8.01,ID,1624452263
Jinchang,38.4953,102.1739,68.72,59,100,27.54,CN,1624452026
Longyearbyen,78.2186,15.6401,39.04,81,75,14.97,SJ,1624451980
Koslan,63.4564,48.8989,88.21,35,100,7.52,RU,1624452265
Tashla,51.7716,52.7427,91.13,29,6,10.96,RU,1624452266
Gbarnga,6.9956,-9.4722,83.7,56,92,0.67,LR,1624452266
Leshukonskoye,64.8989,45.7622,88.75,35,4,7.61,RU,1624452267
Ponta Delgada,37.7333,-25.6667,68.72,64,75,9.22,PT,1624452267
Cururupu,-1.8283,-44.8683,82.45,69,95,5.01,BR,1624452268
Zhangye,38.9342,100.4517,61.3,87,100,10.76,CN,1624452175
Biltine,14.5333,20.9167,98.11,25,100,9.84,TD,1624452268
Waipawa,-41.4122,175.5153,46.02,91,65,5.57,NZ,1624452269
Teya,60.3778,92.6267,54.77,99,100,0.76,RU,1624452269
Soavinandriana,-19.1667,46.7333,63.32,39,5,2.13,MG,1624452269
Honiara,-9.4333,159.95,77.47,90,50,5.66,SB,1624451974
Dvinskoy Bereznik,62.8551,42.7072,95.56,22,3,6.55,RU,1624452270
Chihuahua,28.5,-106.0,74.57,39,90,2.24,MX,1624452270
Tokmak,47.2514,35.7058,86.81,54,97,7.14,UA,1624452271
Challapata,-18.9,-66.7667,43.32,38,16,5.48,BO,1624452271
Syas'stroy,60.1367,32.5691,86.02,41,21,9.78,RU,1624452272
Cockburn Town,21.4612,-71.1419,82.36,69,40,11.5,TC,1624452272
Kavaratti,10.5669,72.642,82.83,76,100,18.01,IN,1624452273
Muskegon,43.3,-86.1334,62.94,74,75,10.36,US,1624452274
Egvekinot,66.3167,-179.1667,45.73,67,8,6.55,RU,1624452274
Sovetskaya,44.7769,41.1722,87.82,55,10,4.36,RU,1624452275
Mackay,-21.15,149.2,67.98,88,96,11.5,AU,1624452276
Nizhniy Baskunchak,48.2198,46.8311,101.03,13,47,7.0,RU,1624452276
Katobu,-4.9408,122.5276,75.63,90,16,3.96,ID,1624452277
Slave Lake,55.2834,-114.769,53.58,87,90,13.8,CA,1624452277
Camacha,33.0833,-16.3333,70.54,60,40,17.27,PT,1624452277
Rome,43.2128,-75.4557,59.68,83,20,0.0,US,1624452068
Poum,-20.2333,164.0167,72.41,64,71,13.15,NC,1624452279
At-Bashi,41.1702,75.8106,66.25,30,18,9.89,KG,1624452280
Bograd,54.2344,90.8328,60.55,81,9,7.74,RU,1624452280
Khatanga,71.9667,102.5,56.95,41,93,17.29,RU,1624452280
Juneau,58.3019,-134.4197,54.21,91,90,1.99,US,1624452281
Springfield,37.2153,-93.2982,65.88,74,1,5.99,US,1624452015
Manzhouli,49.6,117.4333,67.5,49,2,3.91,CN,1624452238
Tra Vinh,9.9347,106.3453,80.19,77,36,8.84,VN,1624452282
Gravelbourg,49.8834,-106.5512,57.47,50,9,9.57,CA,1624452283
Bilibino,68.0546,166.4372,56.57,64,28,5.86,RU,1624452283
Novocheremshansk,54.3571,50.1666,86.99,48,0,8.61,RU,1624452283
Wuning,29.2589,120.2311,68.02,74,10,5.68,CN,1624452284
Lobito,-12.3481,13.5456,76.39,70,2,8.46,AO,1624452284
Mirzāpur,25.15,82.5833,84.16,59,100,3.2,IN,1624452285
Oodweyne,9.4092,45.064,83.68,37,100,24.14,SO,1624452285
Kokkola,63.8385,23.1307,62.76,91,90,9.22,FI,1624452286
Malé,4.1748,73.5089,85.95,74,75,18.41,MV,1624452182
Portel,-1.9356,-50.8211,82.31,69,7,3.87,BR,1624452286
Aleksandrovsk-Sakhalinskiy,50.8975,142.1561,53.38,98,100,3.65,RU,1624452287
Grand-Santi,4.25,-54.3833,83.14,67,8,3.85,GF,1624452287
Vila Velha,-20.3297,-40.2925,73.35,68,20,9.22,BR,1624452288
Sokoni,-6.4333,39.55,84.06,70,5,16.13,TZ,1624452288
Ilhabela,-23.7781,-45.3581,67.82,81,88,4.25,BR,1624452289
Esperance,-33.8667,121.9,51.64,72,100,20.29,AU,1624452289
Chancay,-11.5714,-77.2672,64.27,83,77,5.97,PE,1624452289
Provideniya,64.3833,-173.3,52.39,70,23,3.0,RU,1624452290
Bathsheba,13.2167,-59.5167,83.01,61,40,17.27,BB,1624452290
Güzelyurt,38.2772,34.3719,77.79,45,72,5.7,TR,1624452290
San Remigio,11.0809,123.9381,82.2,74,100,3.89,PH,1624452291
Wanning,18.8003,110.3967,81.39,86,100,3.65,CN,1624452291
Lake Shasta,40.6804,-122.3708,65.12,66,0,2.95,US,1624452292
Shangrao,28.4532,117.9686,74.35,76,88,3.56,CN,1624452293
Dickinson,29.4608,-95.0513,83.01,87,40,0.0,US,1624452294
Sawākin,19.1059,37.3321,95.32,41,44,11.77,SD,1624452296
Gushikawa,26.3544,127.8686,76.23,81,75,4.61,JP,1624452297
Uruçuí,-7.2294,-44.5561,87.82,41,1,11.12,BR,1624452298
Vestmannaeyjar,63.4427,-20.2734,50.65,63,100,17.45,IS,1624452298
Sharjah city,25.3573,55.4033,111.54,20,20,13.8,AE,1624451999
Nāyudupet,13.9,79.9,88.68,51,90,12.21,IN,1624452299
Malbork,54.0359,19.0266,76.87,61,76,3.83,PL,1624452299
Vao,-22.6667,167.4833,71.17,56,20,21.79,NC,1624452299
Boyolangu,-8.1181,111.8935,75.34,93,96,3.36,ID,1624452088
Honningsvåg,70.9821,25.9704,46.53,75,75,17.34,NO,1624452300
Manacapuru,-3.2997,-60.6206,77.58,81,67,1.74,BR,1624452300
Masallātah,32.6167,14.0,101.19,21,0,13.04,LY,1624452301
Shingū,33.7333,135.9833,67.24,90,0,3.11,JP,1624452301
Damietta,31.4165,31.8133,82.29,56,0,11.3,EG,1624452302
Sola,-13.8833,167.55,78.78,77,100,26.33,VU,1624452302
Cabra,37.4725,-4.4421,83.64,24,0,6.44,ES,1624452303
Panzhihua,26.5851,101.7128,79.59,67,90,0.69,CN,1624452077
Husavik,66.0449,-17.3389,46.31,95,100,11.12,IS,1624452303
Malanje,-9.5402,16.341,80.98,54,75,0.0,AO,1624452304
Neryungri,56.6709,124.6491,62.26,85,30,2.93,RU,1624452304
Knysna,-34.0363,23.0471,59.38,69,34,12.5,ZA,1624452305
Ciudad del Carmen,18.6333,-91.8333,80.08,87,100,13.76,MX,1624452305
Seoul,37.5683,126.9778,71.08,85,40,5.75,KR,1624452221
Arkhangelsk,64.5401,40.5433,82.51,65,40,4.47,RU,1624452306
Broken Hill,-31.95,141.4333,55.11,88,90,12.66,AU,1624452307
Henties Bay,-22.116,14.2845,66.51,67,3,11.59,NA,1624452307
Umluj,25.0213,37.2685,88.32,55,5,17.31,SA,1624452308
Narsaq,60.9167,-46.05,44.29,91,100,1.16,GL,1624452308
Alihe,50.5667,123.7167,66.29,64,35,2.24,CN,1624452308
Departamento de Maldonado,-34.6667,-54.9167,54.23,85,1,14.47,UY,1624452309
Savinka,50.0785,47.0994,97.52,18,17,3.78,RU,1624452309
Hūn,29.1268,15.9477,105.64,9,0,13.02,LY,1624452309
Saint-Joseph,-21.3667,55.6167,72.21,68,28,13.49,RE,1624452310
Hasaki,35.7333,140.8333,68.4,79,69,9.33,JP,1624452310
Williams Lake,52.1415,-122.1445,62.17,78,75,0.0,CA,1624452311
Wajima,37.4,136.9,65.61,83,5,3.36,JP,1624452109
Ploemeur,47.7333,-3.4333,66.79,58,40,14.97,FR,1624452312
Laibin,23.7,109.2667,81.57,86,99,2.77,CN,1624452243
Kutum,14.2,24.6667,92.77,18,100,11.92,SD,1624452313
Marquette,46.5333,-87.6335,60.35,54,90,11.03,US,1624452313
Camaná,-16.6228,-72.7111,61.66,83,69,7.34,PE,1624452314
Jerônimo Monteiro,-20.7894,-41.395,71.98,70,63,2.91,BR,1624452314
Moche,-8.1711,-79.0092,64.58,88,90,8.05,PE,1624452314
Katangli,51.7102,143.2326,45.99,97,100,14.9,RU,1624452315
Sudislavl',57.8817,41.7083,90.19,36,60,5.93,RU,1624452315
Tucuruí,-3.7661,-49.6725,83.32,67,11,3.33,BR,1624452316
Puerto Escondido,15.85,-97.0667,79.97,79,100,3.91,MX,1624452316
Sabaudia,41.3003,13.0282,100.89,68,6,13.91,IT,1624452316
Santiago del Estero,-27.7951,-64.2615,58.05,81,13,8.16,AR,1624452317
Comodoro Rivadavia,-45.8667,-67.5,42.66,87,75,2.3,AR,1624452317
Senanga,-16.1167,23.2667,81.45,21,0,2.26,ZM,1624452318
Ulaangom,49.9811,92.0667,60.31,51,27,14.99,MN,1624452284
Campbellsville,37.3434,-85.3419,62.19,48,0,1.01,US,1624452319
Thinadhoo,0.5333,72.9333,82.8,71,52,13.53,MV,1624452319
Necochea,-38.5473,-58.7368,51.04,87,100,13.98,AR,1624452320
Chibombo,-14.6569,28.0706,78.19,26,98,4.88,ZM,1624452320
San Blas,21.5167,-105.2667,78.69,86,100,1.32,MX,1624452320
Cavalcante,-13.7975,-47.4583,80.1,28,0,9.35,BR,1624452321
Palmer,42.1584,-72.3287,62.44,66,1,1.01,US,1624452321
Sciacca,37.5082,13.0881,111.04,57,100,10.09,IT,1624452322
Sakakah,29.9697,40.2064,107.17,10,0,2.3,SA,1624452322
Cabedelo,-6.9811,-34.8339,81.27,64,4,16.67,BR,1624452323
Lowestoft,52.4752,1.7516,68.34,64,2,8.5,GB,1624452323
Tautira,-17.7333,-149.15,73.42,75,18,6.33,PF,1624452323
Dilla,6.41,38.31,70.7,73,51,1.25,ET,1624452324
Pangkalanbuun,-2.6833,111.6167,75.52,96,78,2.06,ID,1624452324
Broome,42.2506,-75.833,58.57,80,90,1.01,US,1624452325
Washougal,45.5826,-122.3534,62.56,89,75,0.0,US,1624452325
Priekule,56.4468,21.5897,72.79,53,5,10.33,LV,1624452326
Xiongzhou,25.1167,114.3,77.7,91,100,2.08,CN,1624452326
Zhigansk,66.7697,123.3711,67.05,71,100,17.0,RU,1624452326
Turaif,31.6725,38.6637,93.45,20,0,4.61,SA,1624452327
Lata,40.1629,-8.3327,78.35,46,0,8.16,PT,1624452327
Mehamn,71.0357,27.8492,48.11,61,17,10.29,NO,1624452328
Isfana,39.8386,69.5306,79.36,24,0,6.04,KG,1624452328
Faanui,-16.4833,-151.75,80.02,73,13,10.6,PF,1624452328
Dzilam González,21.2833,-88.9333,80.08,84,65,7.2,MX,1624452329
Denpasar,-8.65,115.2167,82.06,89,40,13.8,ID,1624452042
Orange Cove,36.6244,-119.3137,65.86,82,1,6.91,US,1624452331
Isiro,2.7739,27.616,78.4,76,69,2.64,CD,1624452332
Fonte Boa,-2.4959,-66.2662,76.35,87,100,1.03,BR,1624452332
Quatre Cocos,-20.2078,57.7625,74.08,58,3,15.35,MU,1624452333
Tambura,5.6,27.4667,79.93,62,100,4.23,SS,1624452333
Lorengau,-2.0226,147.2712,81.57,77,58,6.67,PG,1624452334
Zhezkazgan,47.8043,67.7144,79.48,43,100,27.18,KZ,1624452335
Goderich,43.7501,-81.7165,59.92,77,8,4.61,CA,1624452335
Tupik,54.4253,119.9327,62.74,84,37,5.91,RU,1624452335
Melbourne,28.0836,-80.6081,77.22,94,75,1.99,US,1624452126
Zolotukhino,52.0842,36.3772,91.47,68,100,10.63,RU,1624452336
Cap-aux-Meules,47.3821,-61.8597,55.45,94,90,17.27,CA,1624452336
Los Alamos,35.8881,-106.307,67.78,20,1,4.61,US,1624452097
Nālūt,30.3333,10.85,106.16,9,0,13.38,LY,1624452338
Praia da Vitória,38.7333,-27.0667,68.76,68,75,0.51,PT,1624452338
Noumea,-22.2763,166.4572,71.01,99,83,8.79,NC,1624452117
Bahía Blanca,-38.7196,-62.2724,52.0,80,100,11.41,AR,1624452339
Kargasok,59.0556,80.8572,56.73,53,100,3.96,RU,1624452340
Touros,-5.1989,-35.4608,81.5,56,7,16.82,BR,1624452340
Cascais,38.6979,-9.4215,78.15,56,20,5.01,PT,1624452340
Astara,38.5,48.6667,93.18,22,0,6.96,AZ,1624452341
Ostrovnoy,68.0531,39.5131,44.87,86,100,11.34,RU,1624452341
Ocós,14.5094,-92.1933,82.31,86,100,8.77,GT,1624452342
El Ejido,36.7763,-2.8146,86.09,59,7,6.91,ES,1624452342
Kumul,42.8,93.45,85.32,17,100,11.23,CN,1624452342
Champasak,14.75,106.0,77.88,97,100,1.74,LA,1624452343
La Rioja,42.25,-2.5,62.38,74,99,5.53,ES,1624452343
Okhotsk,59.3833,143.3,45.43,88,4,5.88,RU,1624452345
Najrān,17.4924,44.1277,101.05,7,100,17.07,SA,1624452346
Vabalninkas,55.9667,24.75,82.0,66,98,8.57,LT,1624452346
Paka,4.6374,103.4368,82.33,94,100,0.0,MY,1624452347
Kralendijk,12.15,-68.2667,82.38,74,42,10.36,BQ,1624452347
Itarema,-2.9248,-39.9167,84.67,56,0,13.8,BR,1624452347
Lincoln,40.8,-96.667,71.13,68,1,3.0,US,1624452348
Dalianwan,39.0286,121.695,73.44,60,0,6.71,CN,1624452349
Dmitriyevka,54.75,55.3333,81.95,78,36,14.7,RU,1624452349
Airai,-8.9266,125.4092,60.73,95,97,0.83,TL,1624452350
Salmās,38.1973,44.7653,94.19,9,0,9.26,IR,1624452350
Berbera,10.4396,45.0143,93.29,50,100,10.0,SO,1624452303
North Shields,55.0165,-1.4493,64.31,67,20,10.36,GB,1624452351
Iguape,-24.7081,-47.5553,66.94,82,22,6.93,BR,1624452351
Hervey Bay,-25.2986,152.8535,68.04,82,98,1.01,AU,1624452352
Mandera,3.9366,41.867,86.65,41,100,19.13,KE,1624452352
Flinders,-34.5833,150.8552,60.39,78,100,8.01,AU,1624452353
Rawson,-43.3002,-65.1023,49.84,86,84,20.45,AR,1624452353
Half Moon Bay,37.4636,-122.4286,62.89,81,90,0.0,US,1624452354
Verāval,20.9,70.3667,85.93,71,36,13.6,IN,1624452289
Storforshei,66.4043,14.5233,69.58,35,40,11.5,NO,1624452354
Pontianak,-0.0333,109.3333,80.58,89,40,3.44,ID,1624452355
Mo i Rana,66.3128,14.1428,70.27,35,40,11.5,NO,1624452355
Eyl,7.9803,49.8164,86.72,53,100,23.13,SO,1624452356
Stargard,53.3367,15.0499,76.77,48,100,5.01,PL,1624452356
Belyy Yar,53.6039,91.3903,62.49,67,20,8.95,RU,1624452356
Kemisē,10.7167,39.8667,88.48,18,54,12.26,ET,1624452357
Fare,-16.7,-151.0167,79.57,74,11,10.63,PF,1624452357
Leningradskiy,69.3833,178.4167,39.33,77,4,6.29,RU,1624452358
Tāybād,34.74,60.7756,90.39,9,0,27.09,IR,1624452358
Tilichiki,60.4667,166.1,49.21,75,25,5.03,RU,1624452358
Jacksonville,30.3322,-81.6556,77.11,82,75,0.0,US,1624452153
Farafangana,-22.8167,47.8333,71.69,65,0,10.04,MG,1624452359
Orneta,54.1148,20.1333,68.47,74,96,6.53,PL,1624452360
Antalaha,-14.9003,50.2788,75.67,63,0,13.38,MG,1624452354
Verkhnevilyuysk,63.4453,120.3167,63.54,95,94,7.54,RU,1624452360
Szczecinek,53.7079,16.6994,81.34,45,6,6.82,PL,1624452361
Burnie,-41.0667,145.9167,56.91,91,98,18.37,AU,1624452261
Iracoubo,5.4802,-53.2011,81.27,67,23,8.19,GF,1624452361
Gambēla,8.25,34.5833,75.76,82,99,5.37,ET,1624452362
Kingsport,36.5484,-82.5618,65.08,80,40,3.0,US,1624452081
Antofagasta,-23.65,-70.4,58.28,75,52,2.06,CL,1624452363
Wamba,8.9333,8.6,78.01,75,97,2.89,NG,1624452363
Biak,-0.9131,122.8766,76.87,86,23,1.97,ID,1624452364
Newport,51.5877,-2.9984,71.17,56,100,7.47,GB,1624452170
Solnechnyy,50.7214,136.6319,60.1,93,100,3.49,RU,1624452365
Mikhaylovskoye,51.8239,79.7172,61.34,56,100,7.05,RU,1624452365
Mareeba,-17.0,145.4333,66.92,92,41,3.0,AU,1624452365
Kindu,-2.95,25.95,92.73,30,95,2.44,CD,1624452366
Coyhaique,-45.5752,-72.0662,31.95,93,40,5.75,CL,1624452366
Laas,46.6166,10.7002,82.62,49,100,6.42,IT,1624452366
Okha,53.5739,142.9478,42.22,93,0,7.54,RU,1624452367
Havre-St-Pierre,50.2334,-63.5986,55.76,94,90,5.75,CA,1624452367
Edson,53.5835,-116.4356,48.34,87,1,6.91,CA,1624452368
Bandar-e Lengeh,26.5579,54.8807,98.71,56,0,6.91,IR,1624452369
Moussoro,13.6408,16.4901,98.69,27,100,11.34,TD,1624452370
Pochutla,15.7432,-96.4661,76.82,75,100,4.07,MX,1624452370
Charters Towers,-20.1,146.2667,60.89,91,99,6.78,AU,1624452371
Boffa,10.1667,-14.0333,88.39,61,66,4.79,GN,1624452371
Bajil,15.0584,43.2851,99.9,28,98,17.94,YE,1624452371
Petropavlovsk-Kamchatskiy,53.0452,158.6483,46.99,100,20,4.47,RU,1624452372
Isangel,-19.55,169.2667,71.24,65,35,14.83,VU,1624452372
Orkney,-26.9802,26.6727,66.99,27,4,7.65,ZA,1624452352
Gunnedah,-30.9833,150.25,53.22,89,100,3.24,AU,1624452374
Gornyak,50.9942,81.4661,60.89,62,90,16.78,RU,1624452374
Tsimmerbude,54.675,20.1347,71.65,68,77,7.45,RU,1624452375
Nazilli,37.9163,28.3223,96.1,25,2,11.79,TR,1624452317
Nur-Sultan,51.1801,71.446,60.75,67,40,22.37,KZ,1624452228
Ziniaré,12.5822,-1.2983,89.64,37,27,8.21,BF,1624452377
Cardston,49.2,-113.3019,66.49,45,98,11.5,CA,1624452377
Belaya Gora,68.5333,146.4167,65.57,44,13,4.65,RU,1624452378
Sukhothai,17.25,99.6667,84.72,66,100,13.96,TH,1624452378
Sibolga,1.7427,98.7792,76.51,84,78,2.68,ID,1624452379
Khani,41.9563,42.9566,74.77,45,2,7.25,GE,1624452379
Turukhansk,65.8167,87.9833,56.14,66,100,7.78,RU,1624452380
Sayyan,15.1718,44.3244,79.43,17,100,19.19,YE,1624452380
Taltal,-25.4,-70.4833,57.2,77,54,6.02,CL,1624452380
Koutsouras,35.0339,25.9469,81.57,64,0,6.13,GR,1624452381
Esim,4.8699,-2.2405,80.33,76,67,10.0,GH,1624452381
Shimoda,34.6667,138.95,73.17,87,30,9.35,JP,1624452265
Cobija,-11.0267,-68.7692,68.18,100,90,0.0,BO,1624452383
Mabaruma,8.2,-59.7833,77.0,94,40,4.61,GY,1624452383
Teguise,29.0605,-13.564,71.82,53,75,24.16,ES,1624452384
Saku,36.2167,138.4833,63.9,90,99,2.77,JP,1624452294
Olinda,-8.0089,-34.8553,78.53,69,40,11.5,BR,1624452385
Kaeo,-35.1,173.7833,43.32,91,6,4.7,NZ,1624452385
Arroyo de la Encomienda,41.6096,-4.7969,67.14,36,40,5.75,ES,1624452386
